{
"type": "FeatureCollection",
"name": "Facilities_2022_23",
"features": [
{ "type": "Feature", "properties": { "OBJECTID": 29514, "CLASS": "ELEM", "NAME": "LANGFORD", "ISD": "AUSTIN ISD", "ADDRESS": "2206 BLUE MEADOW DRIVE", "CITY": "AUSTIN", "STATE": "TX", "ZIP": "78744", "CAMPUS_ID": "168" }, "geometry": { "type": "Point", "coordinates": [ -97.763499, 30.1820798 ] } },
{ "type": "Feature", "properties": { "OBJECTID": 29515, "CLASS": "ELEM", "NAME": "LEE", "ISD": "AUSTIN ISD", "ADDRESS": "3308 HAMPTON ROAD", "CITY": "AUSTIN", "STATE": "TX", "ZIP": "78705", "CAMPUS_ID": "121" }, "geometry": { "type": "Point", "coordinates": [ -97.7274022, 30.2933808 ] } },
{ "type": "Feature", "properties": { "OBJECTID": 29516, "CLASS": "ELEM", "NAME": "LINDER", "ISD": "AUSTIN ISD", "ADDRESS": "2800 METCALFE ROAD", "CITY": "AUSTIN", "STATE": "TX", "ZIP": "78741", "CAMPUS_ID": "160" }, "geometry": { "type": "Point", "coordinates": [ -97.7376868, 30.2244423 ] } },
{ "type": "Feature", "properties": { "OBJECTID": 29517, "CLASS": "ELEM", "NAME": "MAPLEWOOD", "ISD": "AUSTIN ISD", "ADDRESS": "3808 MAPLEWOOD AVE.", "CITY": "AUSTIN", "STATE": "TX", "ZIP": "78722", "CAMPUS_ID": "122" }, "geometry": { "type": "Point", "coordinates": [ -97.7144007, 30.2931714 ] } },
{ "type": "Feature", "properties": { "OBJECTID": 29518, "CLASS": "ELEM", "NAME": "MATHEWS", "ISD": "AUSTIN ISD", "ADDRESS": "906 WEST LYNN STREET", "CITY": "AUSTIN", "STATE": "TX", "ZIP": "78703", "CAMPUS_ID": "123" }, "geometry": { "type": "Point", "coordinates": [ -97.7609119, 30.2783312 ] } },
{ "type": "Feature", "properties": { "OBJECTID": 29519, "CLASS": "ELEM", "NAME": "MENCHACA", "ISD": "AUSTIN ISD", "ADDRESS": "12120 MENCHACA ROAD", "CITY": "AUSTIN", "STATE": "TX", "ZIP": "78748", "CAMPUS_ID": "147" }, "geometry": { "type": "Point", "coordinates": [ -97.833663, 30.141537 ] } },
{ "type": "Feature", "properties": { "OBJECTID": 29520, "CLASS": "DISTRICT", "NAME": "SITE 905", "ISD": "AUSTIN ISD", "ADDRESS": "84 ROBERT T. MARTINEZ JR. STREET", "CITY": "AUSTIN", "STATE": "TX", "ZIP": "78702", "CAMPUS_ID": "905" }, "geometry": { "type": "Point", "coordinates": [ -97.7219115, 30.25459 ] } },
{ "type": "Feature", "properties": { "OBJECTID": 29521, "CLASS": "ELEM", "NAME": "NORMAN-SIMS", "ISD": "AUSTIN ISD", "ADDRESS": "4001 TANNEHILL LANE", "CITY": "AUSTIN", "STATE": "TX", "ZIP": "78721", "CAMPUS_ID": "150" }, "geometry": { "type": "Point", "coordinates": [ -97.6739338, 30.2783591 ] } },
{ "type": "Feature", "properties": { "OBJECTID": 29522, "CLASS": "ELEM", "NAME": "OAK SPRINGS", "ISD": "AUSTIN ISD", "ADDRESS": "3601 WEBBERVILLE ROAD", "CITY": "AUSTIN", "STATE": "TX", "ZIP": "78702", "CAMPUS_ID": "125" }, "geometry": { "type": "Point", "coordinates": [ -97.704599, 30.2717874 ] } },
{ "type": "Feature", "properties": { "OBJECTID": 29523, "CLASS": "ELEM", "NAME": "ODOM", "ISD": "AUSTIN ISD", "ADDRESS": "1010 TURTLE CREEK BLVD.", "CITY": "AUSTIN", "STATE": "TX", "ZIP": "78745", "CAMPUS_ID": "156" }, "geometry": { "type": "Point", "coordinates": [ -97.7893301, 30.2058884 ] } },
{ "type": "Feature", "properties": { "OBJECTID": 1, "CLASS": "DISTRICT", "NAME": "SITE 907", "ISD": "AUSTIN ISD", "ADDRESS": "1203 SPRINGDALE ROAD", "CITY": "AUSTIN", "STATE": "TX", "ZIP": "78721", "CAMPUS_ID": "907" }, "geometry": { "type": "Point", "coordinates": [ -97.6861057, 30.2794517 ] } },
{ "type": "Feature", "properties": { "OBJECTID": 29525, "CLASS": "ELEM", "NAME": "ST ELMO", "ISD": "AUSTIN ISD", "ADDRESS": "600 W. ST. ELMO ROAD", "CITY": "AUSTIN", "STATE": "TX", "ZIP": "78745", "CAMPUS_ID": "136" }, "geometry": { "type": "Point", "coordinates": [ -97.7735732, 30.2218337 ] } },
{ "type": "Feature", "properties": { "OBJECTID": 29526, "CLASS": "ELEM", "NAME": "SUMMITT", "ISD": "AUSTIN ISD", "ADDRESS": "12207 BRIGADOON LANE", "CITY": "AUSTIN", "STATE": "TX", "ZIP": "78727", "CAMPUS_ID": "138" }, "geometry": { "type": "Point", "coordinates": [ -97.7191372, 30.4187231 ] } },
{ "type": "Feature", "properties": { "OBJECTID": 29527, "CLASS": "ELEM", "NAME": "SUNSET VALLEY", "ISD": "AUSTIN ISD", "ADDRESS": "3000 JONES ROAD", "CITY": "SUNSET VALLEY", "STATE": "TX", "ZIP": "78745", "CAMPUS_ID": "158" }, "geometry": { "type": "Point", "coordinates": [ -97.8069519, 30.227841 ] } },
{ "type": "Feature", "properties": { "OBJECTID": 29528, "CLASS": "ELEM", "NAME": "TRAVIS HEIGHTS", "ISD": "AUSTIN ISD", "ADDRESS": "2010 ALAMEDA DRIVE", "CITY": "AUSTIN", "STATE": "TX", "ZIP": "78704", "CAMPUS_ID": "140" }, "geometry": { "type": "Point", "coordinates": [ -97.7459024, 30.2414385 ] } },
{ "type": "Feature", "properties": { "OBJECTID": 29529, "CLASS": "ELEM", "NAME": "WALNUT CREEK", "ISD": "AUSTIN ISD", "ADDRESS": "401 W. BRAKER LANE", "CITY": "AUSTIN", "STATE": "TX", "ZIP": "78753", "CAMPUS_ID": "141" }, "geometry": { "type": "Point", "coordinates": [ -97.6838326, 30.3797394 ] } },
{ "type": "Feature", "properties": { "OBJECTID": 29530, "CLASS": "ELEM", "NAME": "WIDEN", "ISD": "AUSTIN ISD", "ADDRESS": "5605 NUCKOLS CROSSING", "CITY": "AUSTIN", "STATE": "TX", "ZIP": "78744", "CAMPUS_ID": "175" }, "geometry": { "type": "Point", "coordinates": [ -97.7397086, 30.188454 ] } },
{ "type": "Feature", "properties": { "OBJECTID": 29531, "CLASS": "ELEM", "NAME": "WILLIAMS", "ISD": "AUSTIN ISD", "ADDRESS": "500 MAIRO STREET", "CITY": "AUSTIN", "STATE": "TX", "ZIP": "78748", "CAMPUS_ID": "166" }, "geometry": { "type": "Point", "coordinates": [ -97.7911419, 30.1810203 ] } },
{ "type": "Feature", "properties": { "OBJECTID": 29532, "CLASS": "ELEM", "NAME": "WINN", "ISD": "AUSTIN ISD", "ADDRESS": "3500 SUSQUEHANNA LANE", "CITY": "AUSTIN", "STATE": "TX", "ZIP": "78723", "CAMPUS_ID": "157" }, "geometry": { "type": "Point", "coordinates": [ -97.6652728, 30.3138712 ] } },
{ "type": "Feature", "properties": { "OBJECTID": 29533, "CLASS": "ELEM", "NAME": "WOOLDRIDGE", "ISD": "AUSTIN ISD", "ADDRESS": "1412 NORSEMAN TERRACE", "CITY": "AUSTIN", "STATE": "TX", "ZIP": "78758", "CAMPUS_ID": "152" }, "geometry": { "type": "Point", "coordinates": [ -97.7097165, 30.3649544 ] } },
{ "type": "Feature", "properties": { "OBJECTID": 29534, "CLASS": "ELEM", "NAME": "ANDREWS", "ISD": "AUSTIN ISD", "ADDRESS": "6801 NORTHEAST DRIVE", "CITY": "AUSTIN", "STATE": "TX", "ZIP": "78723", "CAMPUS_ID": "102" }, "geometry": { "type": "Point", "coordinates": [ -97.679788, 30.3177061 ] } },
{ "type": "Feature", "properties": { "OBJECTID": 29535, "CLASS": "ELEM", "NAME": "BARRINGTON", "ISD": "AUSTIN ISD", "ADDRESS": "400 COOPER DRIVE", "CITY": "AUSTIN", "STATE": "TX", "ZIP": "78752", "CAMPUS_ID": "149" }, "geometry": { "type": "Point", "coordinates": [ -97.6959263, 30.3604916 ] } },
{ "type": "Feature", "properties": { "OBJECTID": 29536, "CLASS": "ELEM", "NAME": "BARTON HILLS", "ISD": "AUSTIN ISD", "ADDRESS": "2108 BARTON HILLS DRIVE", "CITY": "AUSTIN", "STATE": "TX", "ZIP": "78704", "CAMPUS_ID": "103" }, "geometry": { "type": "Point", "coordinates": [ -97.7833512, 30.254401 ] } },
{ "type": "Feature", "properties": { "OBJECTID": 29537, "CLASS": "ELEM", "NAME": "BECKER", "ISD": "AUSTIN ISD", "ADDRESS": "906 W MILTON STREET", "CITY": "AUSTIN", "STATE": "TX", "ZIP": "78704", "CAMPUS_ID": "104" }, "geometry": { "type": "Point", "coordinates": [ -97.7593184, 30.250417 ] } },
{ "type": "Feature", "properties": { "OBJECTID": 29538, "CLASS": "ELEM", "NAME": "BLACKSHEAR", "ISD": "AUSTIN ISD", "ADDRESS": "1712 E. 11TH STREET", "CITY": "AUSTIN", "STATE": "TX", "ZIP": "78702", "CAMPUS_ID": "105" }, "geometry": { "type": "Point", "coordinates": [ -97.7219392, 30.2669854 ] } },
{ "type": "Feature", "properties": { "OBJECTID": 29539, "CLASS": "ELEM", "NAME": "BLANTON", "ISD": "AUSTIN ISD", "ADDRESS": "5408 WESTMINSTER DRIVE", "CITY": "AUSTIN", "STATE": "TX", "ZIP": "78723", "CAMPUS_ID": "106" }, "geometry": { "type": "Point", "coordinates": [ -97.6901932, 30.3068803 ] } },
{ "type": "Feature", "properties": { "OBJECTID": 29540, "CLASS": "ELEM", "NAME": "BOONE", "ISD": "AUSTIN ISD", "ADDRESS": "8101 CROFTWOOD DRIVE", "CITY": "AUSTIN", "STATE": "TX", "ZIP": "78749", "CAMPUS_ID": "170" }, "geometry": { "type": "Point", "coordinates": [ -97.8406996, 30.2040033 ] } },
{ "type": "Feature", "properties": { "OBJECTID": 29541, "CLASS": "ELEM", "NAME": "BRENTWOOD", "ISD": "AUSTIN ISD", "ADDRESS": "6700 ARROYO SECO", "CITY": "AUSTIN", "STATE": "TX", "ZIP": "78757", "CAMPUS_ID": "107" }, "geometry": { "type": "Point", "coordinates": [ -97.7314554, 30.3397955 ] } },
{ "type": "Feature", "properties": { "OBJECTID": 29542, "CLASS": "DISTRICT", "NAME": "SITE 903", "ISD": "AUSTIN ISD", "ADDRESS": "3100 4TH STREET", "CITY": "AUSTIN", "STATE": "TX", "ZIP": "78702", "CAMPUS_ID": "903" }, "geometry": { "type": "Point", "coordinates": [ -97.7080947, 30.2547691 ] } },
{ "type": "Feature", "properties": { "OBJECTID": 29543, "CLASS": "ELEM", "NAME": "BROWN", "ISD": "AUSTIN ISD", "ADDRESS": "505 W. ANDERSON LANE", "CITY": "AUSTIN", "STATE": "TX", "ZIP": "78752", "CAMPUS_ID": "109" }, "geometry": { "type": "Point", "coordinates": [ -97.7090907, 30.3448083 ] } },
{ "type": "Feature", "properties": { "OBJECTID": 29544, "CLASS": "ELEM", "NAME": "WOOTEN", "ISD": "AUSTIN ISD", "ADDRESS": "1406 DALE DRIVE", "CITY": "AUSTIN", "STATE": "TX", "ZIP": "78757", "CAMPUS_ID": "144" }, "geometry": { "type": "Point", "coordinates": [ -97.7191879, 30.3536004 ] } },
{ "type": "Feature", "properties": { "OBJECTID": 29545, "CLASS": "ELEM", "NAME": "ZAVALA", "ISD": "AUSTIN ISD", "ADDRESS": "310 ROBERT MARTINEZ JR. STREET", "CITY": "AUSTIN", "STATE": "TX", "ZIP": "78702", "CAMPUS_ID": "145" }, "geometry": { "type": "Point", "coordinates": [ -97.7200001, 30.2580332 ] } },
{ "type": "Feature", "properties": { "OBJECTID": 29546, "CLASS": "ELEM", "NAME": "ZILKER", "ISD": "AUSTIN ISD", "ADDRESS": "1900 BLUEBONNET LANE", "CITY": "AUSTIN", "STATE": "TX", "ZIP": "78704", "CAMPUS_ID": "146" }, "geometry": { "type": "Point", "coordinates": [ -97.7741286, 30.2527452 ] } },
{ "type": "Feature", "properties": { "OBJECTID": 29547, "CLASS": "ELEM", "NAME": "OAK HILL", "ISD": "AUSTIN ISD", "ADDRESS": "6101 PATTON RANCH ROAD", "CITY": "AUSTIN", "STATE": "TX", "ZIP": "78735", "CAMPUS_ID": "148" }, "geometry": { "type": "Point", "coordinates": [ -97.8588579, 30.2381035 ] } },
{ "type": "Feature", "properties": { "OBJECTID": 29548, "CLASS": "ELEM", "NAME": "CLAYTON", "ISD": "AUSTIN ISD", "ADDRESS": "7525 LA CROSSE AVE.", "CITY": "AUSTIN", "STATE": "TX", "ZIP": "78739", "CAMPUS_ID": "184" }, "geometry": { "type": "Point", "coordinates": [ -97.9064491, 30.1948454 ] } },
{ "type": "Feature", "properties": { "OBJECTID": 29549, "CLASS": "ELEM", "NAME": "BLAZIER 4-6", "ISD": "AUSTIN ISD", "ADDRESS": "8801 VERTEX BLVD", "CITY": "AUSTIN", "STATE": "TX", "ZIP": "78744", "CAMPUS_ID": "185" }, "geometry": { "type": "Point", "coordinates": [ -97.7516352, 30.1562077 ] } },
{ "type": "Feature", "properties": { "OBJECTID": 29550, "CLASS": "ELEM", "NAME": "OVERTON", "ISD": "AUSTIN ISD", "ADDRESS": "7201 COLONY LOOP DRIVE", "CITY": "AUSTIN", "STATE": "TX", "ZIP": "78724", "CAMPUS_ID": "189" }, "geometry": { "type": "Point", "coordinates": [ -97.636193, 30.3002364 ] } },
{ "type": "Feature", "properties": { "OBJECTID": 29551, "CLASS": "ELEM", "NAME": "BALDWIN", "ISD": "AUSTIN ISD", "ADDRESS": "12200 MERIDIAN PARK BLVD", "CITY": "AUSTIN", "STATE": "TX", "ZIP": "78739", "CAMPUS_ID": "187" }, "geometry": { "type": "Point", "coordinates": [ -97.9232955, 30.1848357 ] } },
{ "type": "Feature", "properties": { "OBJECTID": 29552, "CLASS": "ELEM", "NAME": "PEREZ", "ISD": "AUSTIN ISD", "ADDRESS": "7500 S. PLEASANT VALLEY ROAD", "CITY": "AUSTIN", "STATE": "TX", "ZIP": "78744", "CAMPUS_ID": "190" }, "geometry": { "type": "Point", "coordinates": [ -97.756308, 30.1704766 ] } },
{ "type": "Feature", "properties": { "OBJECTID": 29553, "CLASS": "MID", "NAME": "PAREDES", "ISD": "AUSTIN ISD", "ADDRESS": "10100 S. MARY MOORE SEARIGHT DRIVE", "CITY": "AUSTIN", "STATE": "TX", "ZIP": "78748", "CAMPUS_ID": "061" }, "geometry": { "type": "Point", "coordinates": [ -97.8114618, 30.1670643 ] } },
{ "type": "Feature", "properties": { "OBJECTID": 29554, "CLASS": "ELEM", "NAME": "GRAHAM", "ISD": "AUSTIN ISD", "ADDRESS": "11211 TOM ADAMS DRIVE", "CITY": "AUSTIN", "STATE": "TX", "ZIP": "78753", "CAMPUS_ID": "159" }, "geometry": { "type": "Point", "coordinates": [ -97.6689005, 30.3723501 ] } },
{ "type": "Feature", "properties": { "OBJECTID": 29555, "CLASS": "ELEM", "NAME": "GULLETT", "ISD": "AUSTIN ISD", "ADDRESS": "6310 TREADWELL BLVD.", "CITY": "AUSTIN", "STATE": "TX", "ZIP": "78757", "CAMPUS_ID": "117" }, "geometry": { "type": "Point", "coordinates": [ -97.7486501, 30.3437042 ] } },
{ "type": "Feature", "properties": { "OBJECTID": 29556, "CLASS": "ELEM", "NAME": "HARRIS", "ISD": "AUSTIN ISD", "ADDRESS": "1711 WHELESS LANE", "CITY": "AUSTIN", "STATE": "TX", "ZIP": "78723", "CAMPUS_ID": "118" }, "geometry": { "type": "Point", "coordinates": [ -97.6910518, 30.3148904 ] } },
{ "type": "Feature", "properties": { "OBJECTID": 29557, "CLASS": "ELEM", "NAME": "HIGHLAND PARK", "ISD": "AUSTIN ISD", "ADDRESS": "4900 FAIRVIEW DRIVE", "CITY": "AUSTIN", "STATE": "TX", "ZIP": "78731", "CAMPUS_ID": "119" }, "geometry": { "type": "Point", "coordinates": [ -97.7598393, 30.3303479 ] } },
{ "type": "Feature", "properties": { "OBJECTID": 29558, "CLASS": "ELEM", "NAME": "HILL", "ISD": "AUSTIN ISD", "ADDRESS": "8601 TALLWOOD DRIVE", "CITY": "AUSTIN", "STATE": "TX", "ZIP": "78759", "CAMPUS_ID": "155" }, "geometry": { "type": "Point", "coordinates": [ -97.7486074, 30.3765869 ] } },
{ "type": "Feature", "properties": { "OBJECTID": 29559, "CLASS": "ELEM", "NAME": "HOUSTON", "ISD": "AUSTIN ISD", "ADDRESS": "5409 PONCIANA DRIVE", "CITY": "AUSTIN", "STATE": "TX", "ZIP": "78744", "CAMPUS_ID": "162" }, "geometry": { "type": "Point", "coordinates": [ -97.7550755, 30.1977486 ] } },
{ "type": "Feature", "properties": { "OBJECTID": 29560, "CLASS": "ELEM", "NAME": "JORDAN", "ISD": "AUSTIN ISD", "ADDRESS": "6711 JOHNNY MORRIS ROAD", "CITY": "AUSTIN", "STATE": "TX", "ZIP": "78724", "CAMPUS_ID": "178" }, "geometry": { "type": "Point", "coordinates": [ -97.6469241, 30.3008455 ] } },
{ "type": "Feature", "properties": { "OBJECTID": 29561, "CLASS": "ELEM", "NAME": "JOSLIN", "ISD": "AUSTIN ISD", "ADDRESS": "4500 MENCHACA ROAD", "CITY": "AUSTIN", "STATE": "TX", "ZIP": "78745", "CAMPUS_ID": "198" }, "geometry": { "type": "Point", "coordinates": [ -97.7902151, 30.2279785 ] } },
{ "type": "Feature", "properties": { "OBJECTID": 29562, "CLASS": "ELEM", "NAME": "KIKER", "ISD": "AUSTIN ISD", "ADDRESS": "5913 LA CROSSE AVE.", "CITY": "AUSTIN", "STATE": "TX", "ZIP": "78739", "CAMPUS_ID": "180" }, "geometry": { "type": "Point", "coordinates": [ -97.8812422, 30.1915365 ] } },
{ "type": "Feature", "properties": { "OBJECTID": 29563, "CLASS": "ELEM", "NAME": "KOCUREK", "ISD": "AUSTIN ISD", "ADDRESS": "9800 CURLEW DRIVE", "CITY": "AUSTIN", "STATE": "TX", "ZIP": "78748", "CAMPUS_ID": "172" }, "geometry": { "type": "Point", "coordinates": [ -97.8349872, 30.178043 ] } },
{ "type": "Feature", "properties": { "OBJECTID": 29564, "CLASS": "ELEM", "NAME": "ORTEGA", "ISD": "AUSTIN ISD", "ADDRESS": "1135 GARLAND AVE.", "CITY": "AUSTIN", "STATE": "TX", "ZIP": "78721", "CAMPUS_ID": "126" }, "geometry": { "type": "Point", "coordinates": [ -97.6843302, 30.2700065 ] } },
{ "type": "Feature", "properties": { "OBJECTID": 29565, "CLASS": "ELEM", "NAME": "PALM", "ISD": "AUSTIN ISD", "ADDRESS": "7601 DIXIE DRIVE", "CITY": "AUSTIN", "STATE": "TX", "ZIP": "78744", "CAMPUS_ID": "171" }, "geometry": { "type": "Point", "coordinates": [ -97.7438883, 30.1648547 ] } },
{ "type": "Feature", "properties": { "OBJECTID": 29566, "CLASS": "ELEM", "NAME": "PATTON", "ISD": "AUSTIN ISD", "ADDRESS": "6001 WESTCREEK DRIVE", "CITY": "AUSTIN", "STATE": "TX", "ZIP": "78749", "CAMPUS_ID": "143" }, "geometry": { "type": "Point", "coordinates": [ -97.8453381, 30.2317262 ] } },
{ "type": "Feature", "properties": { "OBJECTID": 29567, "CLASS": "DISTRICT", "NAME": "SITE 906", "ISD": "AUSTIN ISD", "ADDRESS": "1106 RIO GRANDE", "CITY": "AUSTIN", "STATE": "TX", "ZIP": "78701", "CAMPUS_ID": "906" }, "geometry": { "type": "Point", "coordinates": [ -97.7479486, 30.2751717 ] } },
{ "type": "Feature", "properties": { "OBJECTID": 29568, "CLASS": "ELEM", "NAME": "PECAN SPRINGS", "ISD": "AUSTIN ISD", "ADDRESS": "3100 ROGGE LANE", "CITY": "AUSTIN", "STATE": "TX", "ZIP": "78723", "CAMPUS_ID": "129" }, "geometry": { "type": "Point", "coordinates": [ -97.6768119, 30.3030206 ] } },
{ "type": "Feature", "properties": { "OBJECTID": 29569, "CLASS": "ELEM", "NAME": "PILLOW", "ISD": "AUSTIN ISD", "ADDRESS": "3025 CROSSCREEK DRIVE", "CITY": "AUSTIN", "STATE": "TX", "ZIP": "78757", "CAMPUS_ID": "151" }, "geometry": { "type": "Point", "coordinates": [ -97.7331468, 30.3691547 ] } },
{ "type": "Feature", "properties": { "OBJECTID": 29570, "CLASS": "ELEM", "NAME": "PLEASANT HILL", "ISD": "AUSTIN ISD", "ADDRESS": "6405 CIRCLE S ROAD", "CITY": "AUSTIN", "STATE": "TX", "ZIP": "78745", "CAMPUS_ID": "130" }, "geometry": { "type": "Point", "coordinates": [ -97.7762, 30.1963835 ] } },
{ "type": "Feature", "properties": { "OBJECTID": 29571, "CLASS": "ELEM", "NAME": "REILLY", "ISD": "AUSTIN ISD", "ADDRESS": "405 DENSON DRIVE", "CITY": "AUSTIN", "STATE": "TX", "ZIP": "78752", "CAMPUS_ID": "132" }, "geometry": { "type": "Point", "coordinates": [ -97.7199627, 30.3282331 ] } },
{ "type": "Feature", "properties": { "OBJECTID": 29572, "CLASS": "ELEM", "NAME": "RIDGETOP", "ISD": "AUSTIN ISD", "ADDRESS": "5005 CASWELL AVE.", "CITY": "AUSTIN", "STATE": "TX", "ZIP": "78751", "CAMPUS_ID": "133" }, "geometry": { "type": "Point", "coordinates": [ -97.7162922, 30.3119804 ] } },
{ "type": "Feature", "properties": { "OBJECTID": 29573, "CLASS": "ELEM", "NAME": "SANCHEZ", "ISD": "AUSTIN ISD", "ADDRESS": "73 SAN MARCOS STREET", "CITY": "AUSTIN", "STATE": "TX", "ZIP": "78702", "CAMPUS_ID": "127" }, "geometry": { "type": "Point", "coordinates": [ -97.7351929, 30.2580698 ] } },
{ "type": "Feature", "properties": { "OBJECTID": 29574, "CLASS": "MID", "NAME": "SMALL", "ISD": "AUSTIN ISD", "ADDRESS": "4801 MONTEREY OAKS BLVD.", "CITY": "AUSTIN", "STATE": "TX", "ZIP": "78749", "CAMPUS_ID": "060" }, "geometry": { "type": "Point", "coordinates": [ -97.8418681, 30.2336354 ] } },
{ "type": "Feature", "properties": { "OBJECTID": 29575, "CLASS": "MID", "NAME": "BAILEY", "ISD": "AUSTIN ISD", "ADDRESS": "4020 LOST OASIS HOLLOW", "CITY": "AUSTIN", "STATE": "TX", "ZIP": "78739", "CAMPUS_ID": "059" }, "geometry": { "type": "Point", "coordinates": [ -97.8723684, 30.1642758 ] } },
{ "type": "Feature", "properties": { "OBJECTID": 29576, "CLASS": "MID", "NAME": "BEDICHEK", "ISD": "AUSTIN ISD", "ADDRESS": "6800 BILL HUGHES ROAD", "CITY": "AUSTIN", "STATE": "TX", "ZIP": "78745", "CAMPUS_ID": "054" }, "geometry": { "type": "Point", "coordinates": [ -97.7867229, 30.1944144 ] } },
{ "type": "Feature", "properties": { "OBJECTID": 29577, "CLASS": "MID", "NAME": "BURNET", "ISD": "AUSTIN ISD", "ADDRESS": "8401 HATHAWAY STREET", "CITY": "AUSTIN", "STATE": "TX", "ZIP": "78757", "CAMPUS_ID": "046" }, "geometry": { "type": "Point", "coordinates": [ -97.7254909, 30.3638237 ] } },
{ "type": "Feature", "properties": { "OBJECTID": 29578, "CLASS": "MID", "NAME": "COVINGTON", "ISD": "AUSTIN ISD", "ADDRESS": "3700 CONVICT HILL ROAD", "CITY": "AUSTIN", "STATE": "TX", "ZIP": "78749", "CAMPUS_ID": "057" }, "geometry": { "type": "Point", "coordinates": [ -97.8345565, 30.212563 ] } },
{ "type": "Feature", "properties": { "OBJECTID": 29579, "CLASS": "MID", "NAME": "DOBIE", "ISD": "AUSTIN ISD", "ADDRESS": "1200 E. RUNDBERG LANE", "CITY": "AUSTIN", "STATE": "TX", "ZIP": "78753", "CAMPUS_ID": "055" }, "geometry": { "type": "Point", "coordinates": [ -97.6803674, 30.3542601 ] } },
{ "type": "Feature", "properties": { "OBJECTID": 29580, "CLASS": "MID", "NAME": "LIVELY", "ISD": "AUSTIN ISD", "ADDRESS": "201 E. MARY STREET", "CITY": "AUSTIN", "STATE": "TX", "ZIP": "78704", "CAMPUS_ID": "043" }, "geometry": { "type": "Point", "coordinates": [ -97.7502792, 30.2436664 ] } },
{ "type": "Feature", "properties": { "OBJECTID": 29581, "CLASS": "MID", "NAME": "KEALING", "ISD": "AUSTIN ISD", "ADDRESS": "1607 PENNSYLVANIA AVE.", "CITY": "AUSTIN", "STATE": "TX", "ZIP": "78702", "CAMPUS_ID": "044" }, "geometry": { "type": "Point", "coordinates": [ -97.7218663, 30.2708862 ] } },
{ "type": "Feature", "properties": { "OBJECTID": 29582, "CLASS": "MID", "NAME": "LAMAR", "ISD": "AUSTIN ISD", "ADDRESS": "6201 WYNONA STREET", "CITY": "AUSTIN", "STATE": "TX", "ZIP": "78757", "CAMPUS_ID": "045" }, "geometry": { "type": "Point", "coordinates": [ -97.7405496, 30.3378136 ] } },
{ "type": "Feature", "properties": { "OBJECTID": 29583, "CLASS": "MID", "NAME": "MARTIN", "ISD": "AUSTIN ISD", "ADDRESS": "1601 HASKELL STREET", "CITY": "AUSTIN", "STATE": "TX", "ZIP": "78702", "CAMPUS_ID": "051" }, "geometry": { "type": "Point", "coordinates": [ -97.7298943, 30.2530361 ] } },
{ "type": "Feature", "properties": { "OBJECTID": 29584, "CLASS": "MID", "NAME": "MENDEZ", "ISD": "AUSTIN ISD", "ADDRESS": "5106 VILLAGE SQUARE DRIVE", "CITY": "AUSTIN", "STATE": "TX", "ZIP": "78744", "CAMPUS_ID": "058" }, "geometry": { "type": "Point", "coordinates": [ -97.7434855, 30.1892234 ] } },
{ "type": "Feature", "properties": { "OBJECTID": 29585, "CLASS": "MID", "NAME": "MURCHISON", "ISD": "AUSTIN ISD", "ADDRESS": "3700 N HILLS DRIVE", "CITY": "AUSTIN", "STATE": "TX", "ZIP": "78731", "CAMPUS_ID": "052" }, "geometry": { "type": "Point", "coordinates": [ -97.7583747, 30.3541589 ] } },
{ "type": "Feature", "properties": { "OBJECTID": 29586, "CLASS": "MID", "NAME": "O HENRY", "ISD": "AUSTIN ISD", "ADDRESS": "2610 W. 10TH STREET", "CITY": "AUSTIN", "STATE": "TX", "ZIP": "78735", "CAMPUS_ID": "047" }, "geometry": { "type": "Point", "coordinates": [ -97.7741548, 30.2857236 ] } },
{ "type": "Feature", "properties": { "OBJECTID": 29587, "CLASS": "MID", "NAME": "SADLER MEANS", "ISD": "AUSTIN ISD", "ADDRESS": "6401 N. HAMPTON DRIVE", "CITY": "AUSTIN", "STATE": "TX", "ZIP": "78723", "CAMPUS_ID": "065" }, "geometry": { "type": "Point", "coordinates": [ -97.6804877, 30.3136926 ] } },
{ "type": "Feature", "properties": { "OBJECTID": 29588, "CLASS": "MID", "NAME": "WEBB", "ISD": "AUSTIN ISD", "ADDRESS": "601 E. ST. JOHNS AVE.", "CITY": "AUSTIN", "STATE": "TX", "ZIP": "78752", "CAMPUS_ID": "053" }, "geometry": { "type": "Point", "coordinates": [ -97.7068581, 30.333492 ] } },
{ "type": "Feature", "properties": { "OBJECTID": 29589, "CLASS": "MID", "NAME": "GORZYCKI", "ISD": "AUSTIN ISD", "ADDRESS": "7412 W. SLAUGHTER LANE", "CITY": "AUSTIN", "STATE": "TX", "ZIP": "78749", "CAMPUS_ID": "062" }, "geometry": { "type": "Point", "coordinates": [ -97.891853, 30.2143077 ] } },
{ "type": "Feature", "properties": { "OBJECTID": 29590, "CLASS": "MID", "NAME": "GARCIA", "ISD": "AUSTIN ISD", "ADDRESS": "7414 JOHNNY MORRIS ROAD", "CITY": "AUSTIN", "STATE": "TX", "ZIP": "78724", "CAMPUS_ID": "064" }, "geometry": { "type": "Point", "coordinates": [ -97.6427585, 30.3114594 ] } },
{ "type": "Feature", "properties": { "OBJECTID": 29591, "CLASS": "HIGH", "NAME": "GARZA", "ISD": "AUSTIN ISD", "ADDRESS": "1600 CHICON STREET", "CITY": "AUSTIN", "STATE": "TX", "ZIP": "78702", "CAMPUS_ID": "015" }, "geometry": { "type": "Point", "coordinates": [ -97.7210074, 30.2774343 ] } },
{ "type": "Feature", "properties": { "OBJECTID": 29592, "CLASS": "HIGH", "NAME": "AKINS", "ISD": "AUSTIN ISD", "ADDRESS": "10701 S. FIRST STREET", "CITY": "AUSTIN", "STATE": "TX", "ZIP": "78748", "CAMPUS_ID": "017" }, "geometry": { "type": "Point", "coordinates": [ -97.80093, 30.1490814 ] } },
{ "type": "Feature", "properties": { "OBJECTID": 29593, "CLASS": "HIGH", "NAME": "ANDERSON", "ISD": "AUSTIN ISD", "ADDRESS": "8403 MESA DRIVE", "CITY": "AUSTIN", "STATE": "TX", "ZIP": "78759", "CAMPUS_ID": "009" }, "geometry": { "type": "Point", "coordinates": [ -97.7531891, 30.3756508 ] } },
{ "type": "Feature", "properties": { "OBJECTID": 29594, "CLASS": "HIGH", "NAME": "BOWIE", "ISD": "AUSTIN ISD", "ADDRESS": "4103 W. SLAUGHTER LANE", "CITY": "AUSTIN", "STATE": "TX", "ZIP": "78749", "CAMPUS_ID": "013" }, "geometry": { "type": "Point", "coordinates": [ -97.8587835, 30.1869116 ] } },
{ "type": "Feature", "properties": { "OBJECTID": 29595, "CLASS": "HIGH", "NAME": "CROCKETT", "ISD": "AUSTIN ISD", "ADDRESS": "5601 MENCHACA ROAD", "CITY": "AUSTIN", "STATE": "TX", "ZIP": "78745", "CAMPUS_ID": "008" }, "geometry": { "type": "Point", "coordinates": [ -97.7969713, 30.2139172 ] } },
{ "type": "Feature", "properties": { "OBJECTID": 29596, "CLASS": "HIGH", "NAME": "NAVARRO", "ISD": "AUSTIN ISD", "ADDRESS": "1201 PAYTON GIN ROAD", "CITY": "AUSTIN", "STATE": "TX", "ZIP": "78758", "CAMPUS_ID": "004" }, "geometry": { "type": "Point", "coordinates": [ -97.7079643, 30.3603039 ] } },
{ "type": "Feature", "properties": { "OBJECTID": 29597, "CLASS": "HIGH", "NAME": "LBJ", "ISD": "AUSTIN ISD", "ADDRESS": "7309 LAZY CREEK DRIVE", "CITY": "AUSTIN", "STATE": "TX", "ZIP": "78724", "CAMPUS_ID": "014" }, "geometry": { "type": "Point", "coordinates": [ -97.6566271, 30.3145642 ] } },
{ "type": "Feature", "properties": { "OBJECTID": 29598, "CLASS": "HIGH", "NAME": "NORTHEAST/INTERNATIONAL", "ISD": "AUSTIN ISD", "ADDRESS": "7104 BERKMAN DRIVE", "CITY": "AUSTIN", "STATE": "TX", "ZIP": "78752", "CAMPUS_ID": "006" }, "geometry": { "type": "Point", "coordinates": [ -97.6911683, 30.3241399 ] } },
{ "type": "Feature", "properties": { "OBJECTID": 29599, "CLASS": "HIGH", "NAME": "TRAVIS", "ISD": "AUSTIN ISD", "ADDRESS": "1211 E. OLTORF STREET", "CITY": "AUSTIN", "STATE": "TX", "ZIP": "78704", "CAMPUS_ID": "007" }, "geometry": { "type": "Point", "coordinates": [ -97.7445498, 30.2333277 ] } },
{ "type": "Feature", "properties": { "OBJECTID": 29600, "CLASS": "HIGH", "NAME": "AUSTIN", "ISD": "AUSTIN ISD", "ADDRESS": "1715 W. CESAR CHAVEZ STREET", "CITY": "AUSTIN", "STATE": "TX", "ZIP": "78703", "CAMPUS_ID": "002" }, "geometry": { "type": "Point", "coordinates": [ -97.7671579, 30.2738063 ] } },
{ "type": "Feature", "properties": { "OBJECTID": 29601, "CLASS": "HIGH", "NAME": "MCCALLUM", "ISD": "AUSTIN ISD", "ADDRESS": "5600 SUNSHINE DRIVE", "CITY": "AUSTIN", "STATE": "TX", "ZIP": "78756", "CAMPUS_ID": "005" }, "geometry": { "type": "Point", "coordinates": [ -97.7302868, 30.3257972 ] } },
{ "type": "Feature", "properties": { "OBJECTID": 29604, "CLASS": "ALT ED 1", "NAME": "ROSEDALE", "ISD": "AUSTIN ISD", "ADDRESS": "2608 RICH CREEK", "CITY": "AUSTIN", "STATE": "TX", "ZIP": "78757", "CAMPUS_ID": "251" }, "geometry": { "type": "Point", "coordinates": [ -97.7372559, 30.3527346 ] } },
{ "type": "Feature", "properties": { "OBJECTID": 29605, "CLASS": "HIGH", "NAME": "EASTSIDE ECHS", "ISD": "AUSTIN ISD", "ADDRESS": "900 THOMPSON STREET", "CITY": "AUSTIN", "STATE": "TX", "ZIP": "78702", "CAMPUS_ID": "142" }, "geometry": { "type": "Point", "coordinates": [ -97.709063, 30.2697422 ] } },
{ "type": "Feature", "properties": { "OBJECTID": 29607, "CLASS": "HIGH", "NAME": "LASA", "ISD": "AUSTIN ISD", "ADDRESS": "1012 ARTHUR STILES ROAD", "CITY": "AUSTIN", "STATE": "TX", "ZIP": "78721", "CAMPUS_ID": "019" }, "geometry": { "type": "Point", "coordinates": [ -97.6803795, 30.2587095 ] } },
{ "type": "Feature", "properties": { "OBJECTID": 29608, "CLASS": "ELEM", "NAME": "BRYKER WOODS", "ISD": "AUSTIN ISD", "ADDRESS": "3309 KERBEY LANE", "CITY": "AUSTIN", "STATE": "TX", "ZIP": "78703", "CAMPUS_ID": "110" }, "geometry": { "type": "Point", "coordinates": [ -97.7509244, 30.3053646 ] } },
{ "type": "Feature", "properties": { "OBJECTID": 29609, "CLASS": "ELEM", "NAME": "CAMPBELL", "ISD": "AUSTIN ISD", "ADDRESS": "2613 ROGERS AVE.", "CITY": "AUSTIN", "STATE": "TX", "ZIP": "78722", "CAMPUS_ID": "111" }, "geometry": { "type": "Point", "coordinates": [ -97.7138581, 30.2825115 ] } },
{ "type": "Feature", "properties": { "OBJECTID": 29610, "CLASS": "ELEM", "NAME": "CASIS", "ISD": "AUSTIN ISD", "ADDRESS": "2710 EXPOSITION BLVD.", "CITY": "AUSTIN", "STATE": "TX", "ZIP": "78703", "CAMPUS_ID": "112" }, "geometry": { "type": "Point", "coordinates": [ -97.765513, 30.3043499 ] } },
{ "type": "Feature", "properties": { "OBJECTID": 29611, "CLASS": "ELEM", "NAME": "COOK", "ISD": "AUSTIN ISD", "ADDRESS": "1511 CRIPPLE CREEK DRIVE", "CITY": "AUSTIN", "STATE": "TX", "ZIP": "78758", "CAMPUS_ID": "161" }, "geometry": { "type": "Point", "coordinates": [ -97.7046691, 30.3778503 ] } },
{ "type": "Feature", "properties": { "OBJECTID": 29612, "CLASS": "ELEM", "NAME": "CUNNINGHAM", "ISD": "AUSTIN ISD", "ADDRESS": "2200 BERKELEY AVE.", "CITY": "AUSTIN", "STATE": "TX", "ZIP": "78745", "CAMPUS_ID": "113" }, "geometry": { "type": "Point", "coordinates": [ -97.8059795, 30.2102805 ] } },
{ "type": "Feature", "properties": { "OBJECTID": 29613, "CLASS": "ELEM", "NAME": "DAVIS", "ISD": "AUSTIN ISD", "ADDRESS": "5214 DUVAL ROAD", "CITY": "AUSTIN", "STATE": "TX", "ZIP": "78727", "CAMPUS_ID": "179" }, "geometry": { "type": "Point", "coordinates": [ -97.7413461, 30.4186152 ] } },
{ "type": "Feature", "properties": { "OBJECTID": 29614, "CLASS": "ELEM", "NAME": "DAWSON", "ISD": "AUSTIN ISD", "ADDRESS": "3001 S. 1ST STREET", "CITY": "AUSTIN", "STATE": "TX", "ZIP": "78704", "CAMPUS_ID": "114" }, "geometry": { "type": "Point", "coordinates": [ -97.7636039, 30.2340925 ] } },
{ "type": "Feature", "properties": { "OBJECTID": 29615, "CLASS": "ELEM", "NAME": "DOSS", "ISD": "AUSTIN ISD", "ADDRESS": "7005 NORTHLEDGE DRIVE", "CITY": "AUSTIN", "STATE": "TX", "ZIP": "78731", "CAMPUS_ID": "154" }, "geometry": { "type": "Point", "coordinates": [ -97.7623372, 30.3564497 ] } },
{ "type": "Feature", "properties": { "OBJECTID": 29616, "CLASS": "ELEM", "NAME": "GALINDO", "ISD": "AUSTIN ISD", "ADDRESS": "3800 S. 2ND STREET", "CITY": "AUSTIN", "STATE": "TX", "ZIP": "78704", "CAMPUS_ID": "176" }, "geometry": { "type": "Point", "coordinates": [ -97.7718163, 30.2295198 ] } },
{ "type": "Feature", "properties": { "OBJECTID": 29617, "CLASS": "ELEM", "NAME": "GOVALLE", "ISD": "AUSTIN ISD", "ADDRESS": "3601 GOVALLE AVE.", "CITY": "AUSTIN", "STATE": "TX", "ZIP": "78702", "CAMPUS_ID": "116" }, "geometry": { "type": "Point", "coordinates": [ -97.698591, 30.2641525 ] } },
{ "type": "Feature", "properties": { "OBJECTID": 29618, "CLASS": "ELEM", "NAME": "BARANOFF", "ISD": "AUSTIN ISD", "ADDRESS": "12009 BUCKINGHAM GATE ROAD", "CITY": "AUSTIN", "STATE": "TX", "ZIP": "78748", "CAMPUS_ID": "182" }, "geometry": { "type": "Point", "coordinates": [ -97.852037, 30.1538173 ] } },
{ "type": "Feature", "properties": { "OBJECTID": 29619, "CLASS": "ELEM", "NAME": "CASEY", "ISD": "AUSTIN ISD", "ADDRESS": "9400 TEXAS OAKS DRIVE", "CITY": "AUSTIN", "STATE": "TX", "ZIP": "78748", "CAMPUS_ID": "173" }, "geometry": { "type": "Point", "coordinates": [ -97.8148546, 30.1768563 ] } },
{ "type": "Feature", "properties": { "OBJECTID": 29620, "CLASS": "ELEM", "NAME": "COWAN", "ISD": "AUSTIN ISD", "ADDRESS": "2817 KENTISH DRIVE", "CITY": "AUSTIN", "STATE": "TX", "ZIP": "78748", "CAMPUS_ID": "183" }, "geometry": { "type": "Point", "coordinates": [ -97.8334394, 30.1886796 ] } },
{ "type": "Feature", "properties": { "OBJECTID": 29621, "CLASS": "ELEM", "NAME": "HART", "ISD": "AUSTIN ISD", "ADDRESS": "8301 FURNESS STREET", "CITY": "AUSTIN", "STATE": "TX", "ZIP": "78753", "CAMPUS_ID": "163" }, "geometry": { "type": "Point", "coordinates": [ -97.6886396, 30.3424581 ] } },
{ "type": "Feature", "properties": { "OBJECTID": 29622, "CLASS": "ELEM", "NAME": "MCBEE", "ISD": "AUSTIN ISD", "ADDRESS": "1001 WEST BRAKER", "CITY": "AUSTIN", "STATE": "TX", "ZIP": "78758", "CAMPUS_ID": "165" }, "geometry": { "type": "Point", "coordinates": [ -97.6910983, 30.3832142 ] } },
{ "type": "Feature", "properties": { "OBJECTID": 29623, "CLASS": "ELEM", "NAME": "MILLS", "ISD": "AUSTIN ISD", "ADDRESS": "6201 DAVIS LANE", "CITY": "AUSTIN", "STATE": "TX", "ZIP": "78749", "CAMPUS_ID": "181" }, "geometry": { "type": "Point", "coordinates": [ -97.8776998, 30.2106435 ] } },
{ "type": "Feature", "properties": { "OBJECTID": 29624, "CLASS": "ELEM", "NAME": "PICKLE", "ISD": "AUSTIN ISD", "ADDRESS": "1101 WHEATLEY AVE.", "CITY": "AUSTIN", "STATE": "TX", "ZIP": "78752", "CAMPUS_ID": "164" }, "geometry": { "type": "Point", "coordinates": [ -97.6938308, 30.3330771 ] } },
{ "type": "Feature", "properties": { "OBJECTID": 29625, "CLASS": "ELEM", "NAME": "RODRIGUEZ", "ISD": "AUSTIN ISD", "ADDRESS": "4400 FRANKLIN PARK DRIVE", "CITY": "AUSTIN", "STATE": "TX", "ZIP": "78744", "CAMPUS_ID": "174" }, "geometry": { "type": "Point", "coordinates": [ -97.7473445, 30.2006866 ] } },
{ "type": "Feature", "properties": { "OBJECTID": 29626, "CLASS": "ALT ED 1", "NAME": "ALC", "ISD": "AUSTIN ISD", "ADDRESS": "4900 GONZALES STREET", "CITY": "AUSTIN", "STATE": "TX", "ZIP": "78702", "CAMPUS_ID": "012" }, "geometry": { "type": "Point", "coordinates": [ -97.697138, 30.2560624 ] } },
{ "type": "Feature", "properties": { "OBJECTID": 29627, "CLASS": "ELEM", "NAME": "ALLISON", "ISD": "AUSTIN ISD", "ADDRESS": "515 VARGAS ROAD", "CITY": "AUSTIN", "STATE": "TX", "ZIP": "78741", "CAMPUS_ID": "101" }, "geometry": { "type": "Point", "coordinates": [ -97.6916018, 30.2360303 ] } },
{ "type": "Feature", "properties": { "OBJECTID": 29628, "CLASS": "ELEM", "NAME": "UPHAUS", "ISD": "AUSTIN ISD", "ADDRESS": "5200 FREIDRICH LANE", "CITY": "AUSTIN", "STATE": "TX", "ZIP": "78744", "CAMPUS_ID": "177" }, "geometry": { "type": "Point", "coordinates": [ -97.7557598, 30.2016725 ] } },
{ "type": "Feature", "properties": { "OBJECTID": 29629, "CLASS": "ALT ED 1", "NAME": "TRAVIS GPA", "ISD": "AUSTIN ISD", "ADDRESS": "1211 E. OLTORF STREET", "CITY": "AUSTIN", "STATE": "TX", "ZIP": "78704", "CAMPUS_ID": "023" }, "geometry": { "type": "Point", "coordinates": [ -97.7445587, 30.2348483 ] } },
{ "type": "Feature", "properties": { "OBJECTID": 29630, "CLASS": "ALT ED 1", "NAME": "NAVARRO GPA", "ISD": "AUSTIN ISD", "ADDRESS": "1201 PAYTON GIN ROAD", "CITY": "AUSTIN", "STATE": "TX", "ZIP": "78758", "CAMPUS_ID": "026" }, "geometry": { "type": "Point", "coordinates": [ -97.7088136, 30.361376 ] } },
{ "type": "Feature", "properties": { "OBJECTID": 29631, "CLASS": "ALT ED 1", "NAME": "DAEP", "ISD": "AUSTIN ISD", "ADDRESS": "906 W MILTON STREET", "CITY": "AUSTIN", "STATE": "TX", "ZIP": "78704", "CAMPUS_ID": "115" }, "geometry": { "type": "Point", "coordinates": [ -97.7600711, 30.2507834 ] } },
{ "type": "Feature", "properties": { "OBJECTID": 29632, "CLASS": "ELEM", "NAME": "GUERRERO THOMPSON", "ISD": "AUSTIN ISD", "ADDRESS": "102 E. RUNDBERG LANE", "CITY": "AUSTIN", "STATE": "TX", "ZIP": "78753", "CAMPUS_ID": "186" }, "geometry": { "type": "Point", "coordinates": [ -97.6932202, 30.3609237 ] } },
{ "type": "Feature", "properties": { "OBJECTID": 29638, "CLASS": "ELEM", "NAME": "PADRON", "ISD": "AUSTIN ISD", "ADDRESS": "2011 W. RUNDBERG LANE", "CITY": "AUSTIN", "STATE": "TX", "ZIP": "78758", "CAMPUS_ID": "188" }, "geometry": { "type": "Point", "coordinates": [ -97.7199437, 30.3732578 ] } },
{ "type": "Feature", "properties": { "OBJECTID": 30041, "CLASS": "DISTRICT", "NAME": "SITE 908", "ISD": "AUSTIN ISD", "ADDRESS": "2117 W 49TH STREET", "CITY": "AUSTIN", "STATE": "TX", "ZIP": "78756", "CAMPUS_ID": "908" }, "geometry": { "type": "Point", "coordinates": [ -97.740243, 30.3196605 ] } },
{ "type": "Feature", "properties": { "OBJECTID": 30044, "CLASS": "HIGH", "NAME": "RICHARDS SYWL", "ISD": "AUSTIN ISD", "ADDRESS": "2206 PRATHER LANE", "CITY": "AUSTIN", "STATE": "TX", "ZIP": "78704", "CAMPUS_ID": "028" }, "geometry": { "type": "Point", "coordinates": [ -97.7888711, 30.2368608 ] } },
{ "type": "Feature", "properties": { "OBJECTID": 34611, "CLASS": "ELEM", "NAME": "BEAR CREEK", "ISD": "AUSTIN ISD", "ADDRESS": "12801 ESCARPMENT BLVD", "CITY": "AUSTIN", "STATE": "TX", "ZIP": "78739", "CAMPUS_ID": "195" }, "geometry": { "type": "Point", "coordinates": [ -97.9103344, 30.1701714 ] } },
{ "type": "Feature", "properties": { "OBJECTID": 35935, "CLASS": "MID", "NAME": "MARSHALL", "ISD": "AUSTIN ISD", "ADDRESS": null, "CITY": "AUSTIN", "STATE": "TX", "ZIP": null, "CAMPUS_ID": "0" }, "geometry": { "type": "Point", "coordinates": [ -97.6944087, 30.2971496 ] } },
{ "type": "Feature", "properties": { "OBJECTID": 0, "CLASS": "ELEM", "NAME": "BLAZIER K-3", "ISD": "AUSTIN ISD", "ADDRESS": "8601 VERTEX BLVD", "CITY": "AUSTIN", "STATE": "TX", "ZIP": "78744", "CAMPUS_ID": "185" }, "geometry": { "type": "Point", "coordinates": [ -97.7517816, 30.1566112 ] } },
{ "type": "Feature", "properties": { "OBJECTID": 0, "CLASS": "DISTRICT", "NAME": "AISD CENTRAL", "ISD": "AUSTIN ISD", "ADDRESS": "4000 S IH 35 FRONTAGE ROAD", "CITY": "AUSTIN", "STATE": "TX", "ZIP": "78704", "CAMPUS_ID": "968" }, "geometry": { "type": "Point", "coordinates": [ -97.7534979, 30.2185932 ] } },
{ "type": "Feature", "properties": { "OBJECTID": 0, "CLASS": "ALT ED 1", "NAME": "CLIFTON", "ISD": "AUSTIN ISD", "ADDRESS": "1519 CORONADO HILLS DRIVE", "CITY": "AUSTIN", "STATE": "TX", "ZIP": "78752", "CAMPUS_ID": "852" }, "geometry": { "type": "Point", "coordinates": [ -97.6873417, 30.3263318 ] } },
{ "type": "Feature", "properties": { "OBJECTID": 0, "CLASS": "ATHLETIC", "NAME": "BURGER ATHLETIC", "ISD": "AUSTIN ISD", "ADDRESS": "3200 JONES ROAD", "CITY": "AUSTIN", "STATE": "TX", "ZIP": "78745", "CAMPUS_ID": "951" }, "geometry": { "type": "Point", "coordinates": [ -97.8096889, 30.2305013 ] } },
{ "type": "Feature", "properties": { "OBJECTID": 0, "CLASS": "ATHLETIC", "NAME": "DELCO CENTER", "ISD": "AUSTIN ISD", "ADDRESS": "4601 PECAN BROOK DRIVE", "CITY": "AUSTIN", "STATE": "TX", "ZIP": "78701", "CAMPUS_ID": "949" }, "geometry": { "type": "Point", "coordinates": [ -97.6604441, 30.3175558 ] } },
{ "type": "Feature", "properties": { "OBJECTID": 0, "CLASS": "ATHLETIC", "NAME": "HOUSE PARK", "ISD": "AUSTIN ISD", "ADDRESS": "1301 SHOAL CREEK BLVD", "CITY": "AUSTIN", "STATE": "TX", "ZIP": "78701", "CAMPUS_ID": "280" }, "geometry": { "type": "Point", "coordinates": [ -97.7489504, 30.2782187 ] } },
{ "type": "Feature", "properties": { "OBJECTID": 0, "CLASS": "DISTRICT", "NAME": "NELSON BUS", "ISD": "AUSTIN ISD", "ADDRESS": "7105 BERKMAN DRIVE", "CITY": "AUSTIN", "STATE": "TX", "ZIP": "78752", "CAMPUS_ID": "959" }, "geometry": { "type": "Point", "coordinates": [ -97.6861534, 30.3237488 ] } },
{ "type": "Feature", "properties": { "OBJECTID": 0, "CLASS": "ATHLETIC", "NAME": "NELSON FIELD", "ISD": "AUSTIN ISD", "ADDRESS": "7105 BERKMAN DRIVE", "CITY": "AUSTIN", "STATE": "TX", "ZIP": "78752", "CAMPUS_ID": "281" }, "geometry": { "type": "Point", "coordinates": [ -97.6881807, 30.3234537 ] } },
{ "type": "Feature", "properties": { "OBJECTID": 0, "CLASS": "ATHLETIC", "NAME": "NOACK SPORTS", "ISD": "AUSTIN ISD", "ADDRESS": "5300 CRAINWAY DRIVE", "CITY": "AUSTIN", "STATE": "TX", "ZIP": "78724", "CAMPUS_ID": "950" }, "geometry": { "type": "Point", "coordinates": [ -97.6562301, 30.3177336 ] } },
{ "type": "Feature", "properties": { "OBJECTID": 0, "CLASS": "DISTRICT", "NAME": "PAC", "ISD": "AUSTIN ISD", "ADDRESS": "1500 BARBARA JORDAN BLVD", "CITY": "AUSTIN", "STATE": "TX", "ZIP": "78723", "CAMPUS_ID": "954" }, "geometry": { "type": "Point", "coordinates": [ -97.7030238, 30.3042549 ] } },
{ "type": "Feature", "properties": { "OBJECTID": 0, "CLASS": "DISTRICT", "NAME": "SAEGERT BUS", "ISD": "AUSTIN ISD", "ADDRESS": "3300 JONES ROAD", "CITY": "AUSTIN", "STATE": "TX", "ZIP": "78745", "CAMPUS_ID": "960" }, "geometry": { "type": "Point", "coordinates": [ -97.8125214, 30.2313826 ] } },
{ "type": "Feature", "properties": { "OBJECTID": 0, "CLASS": "DISTRICT", "NAME": "SERVICE CENTER", "ISD": "AUSTIN ISD", "ADDRESS": "5101 E 51ST STREET", "CITY": "AUSTIN", "STATE": "TX", "ZIP": "78723", "CAMPUS_ID": "962" }, "geometry": { "type": "Point", "coordinates": [ -97.6732416, 30.2928048 ] } },
{ "type": "Feature", "properties": { "OBJECTID": 0, "CLASS": "DISTRICT", "NAME": "SOUTHEAST BUS", "ISD": "AUSTIN ISD", "ADDRESS": "7200 BLUFF SPRINGS ROAD", "CITY": "AUSTIN", "STATE": "TX", "ZIP": "78744", "CAMPUS_ID": "955" }, "geometry": { "type": "Point", "coordinates": [ -97.7702171, 30.1808988 ] } },
{ "type": "Feature", "properties": { "OBJECTID": 0, "CLASS": "DISTRICT", "NAME": "CENTRAL WAREHOUSE", "ISD": "AUSTIN ISD", "ADDRESS": "3701 WOODBURY DRIVE", "CITY": "AUSTIN", "STATE": "TX", "ZIP": "78704", "CAMPUS_ID": "922" }, "geometry": { "type": "Point", "coordinates": [ -97.7595078, 30.2252192 ] } }
]
}
